{
  "shops": [
    {
      "name": "Broadway (Causeway Bay)",
      "address": "Unit 901, 9/F, Westin Centre, 26 Hung To Road, Kwun Tong, Kowloon",
      "telphone": "2506 0228",
      "lat": 22.278394,
      "long": 114.181758
    },
    {
      "name": "Broadway (Mong Kok)",
      "address": "G/F-3/F, 79 Argle Street",
      "telphone": "3148 1296",
      "lat": 22.319746,
      "long": 114.170289
    },
    {
      "name": "Broadway (Mong Kok)",
      "address": "G/F-3/F, 79 Argle Street",
      "telphone": "3148 1296",
      "lat": 22.319746,
      "long": 114.170289
    },
    {
      "name": "Broadway (Mong Kok)",
      "address": "G/F-3/F, 79 Argle Street",
      "telphone": "3148 1296",
      "lat": 22.319746,
      "long": 114.170289
    },
    {
      "name": "Broadway (Mong Kok)",
      "address": "G/F-3/F, 79 Argle Street",
      "telphone": "3148 1296",
      "lat": 22.319746,
      "long": 114.170289
    },
    {
      "name": "Broadway (Mong Kok)",
      "address": "G/F-3/F, 79 Argle Street",
      "telphone": "3148 1296",
      "lat": 22.319746,
      "long": 114.170289
    },
    {
      "name": "Broadway (Mong Kok)",
      "address": "G/F-3/F, 79 Argle Street",
      "telphone": "3148 1296",
      "lat": 22.319746,
      "long": 114.170289
    },
    {
      "name": "Broadway (Mong Kok)",
      "address": "G/F-3/F, 79 Argle Street",
      "telphone": "3148 1296",
      "lat": 22.319746,
      "long": 114.170289
    },
    {
      "name": "Broadway (Mong Kok)",
      "address": "G/F-3/F, 79 Argle Street",
      "telphone": "3148 1296",
      "lat": 22.319746,
      "long": 114.170289
    },
    {
      "name": "Broadway (Mong Kok)",
      "address": "G/F-3/F, 79 Argle Street",
      "telphone": "3148 1296",
      "lat": 22.319746,
      "long": 114.170289
    },
    {
      "name": "Broadway (Mong Kok)",
      "address": "G/F-3/F, 79 Argle Street",
      "telphone": "3148 1296",
      "lat": 22.319746,
      "long": 114.170289
    },
    {
      "name": "Broadway (Mong Kok)",
      "address": "G/F-3/F, 79 Argle Street",
      "telphone": "3148 1296",
      "lat": 22.319746,
      "long": 114.170289
    },
    {
      "name": "Broadway (Mong Kok)",
      "address": "G/F-3/F, 79 Argle Street",
      "telphone": "3148 1296",
      "lat": 22.319746,
      "long": 114.170289
    },
    {
      "name": "Broadway (Mong Kok)",
      "address": "G/F-3/F, 79 Argle Street",
      "telphone": "3148 1296",
      "lat": 22.319746,
      "long": 114.170289
    },
    {
      "name": "Broadway (Mong Kok)",
      "address": "G/F-3/F, 79 Argle Street",
      "telphone": "3148 1296",
      "lat": 22.319746,
      "long": 114.170289
    }
  ]
}